  <markers><marker id="1" name="El Huerto" address="Ladislao Cabrera N1125" lat="-19.03724892721055" lng="-65.26223838329315" type="restaurante" /><marker id="7" name="WASY MAMA" address="Ladislao Cabrera N110" lat="-19.03769010539969" lng="-65.2627345919609" type="restaurante" /><marker id="8" name="El Bocantito" address="German Mendoza N90" lat="-19.037596291744947" lng="-65.26390805840492" type="restaurante" /><marker id="9" name="Mondongo" address="J. de la Mar S/N" lat="-19.03728442434959" lng="-65.26313289999962" type="restaurante" /><marker id="10" name="Rolo s" address="J. de la Mar" lat="-19.037161452085527" lng="-65.26311546564102" type="restaurante" /><marker id="11" name="Las Flamas" address="Bolivia N167" lat="-19.03674182439573" lng="-65.2624824643135" type="restaurante" /><marker id="12" name="MANGU DICO BAR" address="Cobija N100" lat="-19.037565865683373" lng="-65.25931477546692" type="bar" /><marker id="13" name="La Llajta" address="German Mendoza" lat="-19.037606433764225" lng="-65.26169121265411" type="restaurante" /><marker id="14" name="Pollos a La Brasa Gabi Con Sabores Del Peru" address="German Mendoza N79" lat="-19.037215965574653" lng="-65.2613639831543" type="restaurante" /><marker id="15" name="Boca Grande" address="German Mendoza N90" lat="-19.036840489521890" lng="-65.26086136115691" type="restaurante" /><marker id="16" name="Restaurant PATITOS" address="Marzana N87" lat="-19.03515458257605" lng="-65.25627851486206" type="restaurante" /><marker id="17" name="Pollos Chelos" address="Emilio HochMan N50" lat="-19.032757210140595" lng="-65.2543942630291" type="restaurante" /><marker id="18" name="Residencial JaviMar" address="Emilio Hochman N70" lat="-19.032767352455416" lng="-65.25453105568886" type="hotel" /><marker id="19" name="La Uvicacion Delas Calles" address="Emilio Hochman S/N" lat="-19.032502384277524" lng="-65.25438755750656" type="hotel" /><marker id="20" name="VICTOR HOTEL" address="Emilio Hochman N100" lat="-19.032286859610565" lng="-65.25481402873993" type="hotel" /><marker id="21" name="Residencial Sol y Cielo" address="J. Prudencio Bustillos N70" lat="-19.033909626698886" lng="-65.25222837924957" type="hotel" /><marker id="22" name="Alojamiento señor De Maica" address="Paraguay N70" lat="-19.033754957394372" lng=" -65.25202184915543" type="hotel" /><marker id="23" name="Hostal &amp;quot;Gran Bilbao&amp;quot;" address="Paraguay N30" lat="-19.033914697821185" lng="-65.25180459022522" type="hotel" /><marker id="24" name="Residencial Turin" address="Guillermo Loayza N125" lat="-19.035881013822014" lng="-65.25137409567833" type="hotel" /><marker id="25" name="Los Sauces" address="R. Villa Lobos S/N" lat="-19.041909143676193" lng="-65.2479548235832" type="chicheria" /><marker id="26" name="Xoxo" address="German Mendoza N400" lat="-19.04818574183963" lng=" -65.24677039572873" type="discoteca" /><marker id="27" name="Jarana Disco" address="Avenida De Las Americas N78" lat="-19.045793376715093" lng="-65.24554699659348" type="discoteca" /><marker id="28" name="Club de baile" address="Avenida De Las Americas N177" lat="-19.04537250315077" lng="-65.24587422609329" type="discoteca" /><marker id="29" name="Boxes" address="Avenida De Las Americas N90" lat="-19.042755964038594" lng="-65.2448844909668" type="bar" /><marker id="30" name="La Cuchara Brava" address="Plaza Cumana S/N" lat="-19.04355462133873" lng="-65.24426221847534" type="restaurante" /><marker id="31" name="Hostal Santa Teresa De Jesus" address="San Alberto N80" lat="-19.04951273706042" lng="-65.2548086643219" type="hotel" /><marker id="32" name="Real Audiencia" address="Potosi N57" lat="-19.049644573797792" lng="-65.25537729263306" type="hotel" /><marker id="33" name="Textil Etnographico" address="San Alberto N70" lat="-19.04939611216698" lng="-65.255007147789" type="turismo" /><marker id="34" name="Museo de Arte Indigena ASUR" address="San Alberto N112" lat="-19.04923385130932" lng="-65.25520026683807" type="turismo" /><marker id="35" name="Museo del Convento de Santa Clara" address="Calvo 70" lat="-19.04940878878981" lng="-65.25658160448074" type="turismo" /><marker id="36" name="Recoleta" address="Dalence Final S/N" lat="-19.05452499468382" lng="-65.25424540042877" type="turismo" /><marker id="37" name="Tanga Tanga" address="Dalence Final S/N" lat="-19.05408639649643" lng="-65.25398790836334" type="turismo" /><marker id="38" name="Museo Colonial Charcas USFX" address="Bolivar N90" lat="-19.05024797906653" lng="-65.25911629199982" type="turismo" /><marker id="39" name="Galeria de Arte" address="Audiencia N77" lat="-19.049335264363954" lng="-65.25894463062286" type="turismo" /><marker id="40" name="MUSEO de la CATEDRAL" address="España N45" lat="-19.049076660952156" lng=" -65.25989413261414" type="turismo" /><marker id="41" name="Centro Historico -UNESCO" address="Plaza 25 De Mayo" lat="-19.048544240894145" lng="-65.25961518287659" type="turismo" /><marker id="42" name="Retro Rock Cafe" address="Bustillos N53" lat="-19.050187131575886" lng="-65.26229202747345" type="bar" /><marker id="43" name="CANENDISH Bar" address="Dalence N35" lat="-19.050065436527657" lng="-65.25963932275772" type="bar" /><marker id="44" name="Stigma Loung Disco" address="Bolivar N150" lat="-19.046371442280645" lng="-65.25574743747711" type="discoteca" /><marker id="45" name="Karaoke y Discoteca &amp;quot;TROPICAL&amp;quot;" address="Ricardo Andrade N50" lat="-19.03921900695038" lng="-65.25625705718994" type="discoteca" /><marker id="46" name="Discoteca AntraX" address="Jaime Mendoza N159" lat="-19.041820389171292" lng="-65.25268703699112" type="discoteca" /></markers>